[
   {
      "place_no": 1,
      "place_id": "ChIJw3uqaBsZ6zkRjS-DDyXqWyk",
      "name": "Hotel Shanker - Palatial Heritage Kathmandu",
      "lat": 27.7188945,
      "lng": 85.31946839999999,
      "full_address": "Lazimpat, Kathmandu 44600, Nepal"
   },
   {
      "place_no": 2,
      "place_id": "ChIJbW5nvLwX6zkRWMXF4DBLu3E",
      "name": "Bungadyo/Rato Machhendranath Temple",
      "lat": 27.6296562,
      "lng": 85.3021253,
      "full_address": "J8H2+VV6, Karyabinayak 44700, Nepal"
   },
   {
      "place_no": 3,
      "place_id": "ChIJkTIYyfob6zkRS61ZD-CX16A",
      "name": "Kopan Monastery",
      "lat": 27.7426594,
      "lng": 85.3649135,
      "full_address": "P9V7+3X7 Ward 11, Budhanilkantha 44600, Nepal"
   },
   {
      "place_no": 4,
      "place_id": "ChIJi___P3UP6zkRtGAZ1TNjBqc",
      "name": "Kailashnath Mahadev Statue",
      "lat": 27.6460946,
      "lng": 85.4741963,
      "full_address": "Sanga, सुर्यविनायक 44800, Nepal"
   },
   {
      "place_no": 5,
      "place_id": "ChIJDZDTYm0Z6zkRjHsQdLKntJQ",
      "name": "Handigaun",
      "lat": 27.716585,
      "lng": 85.3357285,
      "full_address": "Handigaun Marg, Kathmandu 44600, Nepal"
   },
   {
      "place_no": 6,
      "place_id": "ChIJrciCm40Y6zkR93t5EOS9Ma4",
      "name": "Swoyambhu Mahachaitya",
      "lat": 27.7148996,
      "lng": 85.29039569999999,
      "full_address": "P77R+X52, BHAGANPAU 44600, Nepal"
   },
   {
      "place_no": 7,
      "place_id": "ChIJtz-p6AgZ6zkRPaBTRygyUjI",
      "name": "Russian House",
      "lat": 27.7095833,
      "lng": 85.3259132,
      "full_address": "Kamal Pokhari St, Kathmandu 44600, Nepal"
   },
   {
      "place_no": 8,
      "place_id": "ChIJcy5iv5AP6zkRdS-eLyrmnTE",
      "name": "Kathmandu Fun Valley",
      "lat": 27.6467707,
      "lng": 85.4670261,
      "full_address": "अरनिको राजमार्ग Bhaktapur, Araniko Highway Bhaktapur, Suryabinayak 44805, Nepal"
   },
   {
      "place_no": 9,
      "place_id": "ChIJY937crAZ6zkR45QAr1tReKs",
      "name": "Nepal Art Council",
      "lat": 27.6922589,
      "lng": 85.3236319,
      "full_address": "M8RF+WF2, Madan Bhandari Road, Kathmandu 44600, Nepal"
   },
   {
      "place_no": 10,
      "place_id": "ChIJpUfhGVYY6zkRSRfU0WG-41s",
      "name": "Hanuman Dhoka",
      "lat": 27.7043676,
      "lng": 85.30735229999999,
      "full_address": "Hanuman Dhoka Sadak, Kathmandu 44600, Nepal"
   },
   {
      "place_no": 11,
      "place_id": "ChIJi-BViAIZ6zkRaq6h8vq9K_U",
      "name": "Garden of Dreams",
      "lat": 27.7141261,
      "lng": 85.3145041,
      "full_address": "P877+MR2, Tridevi Sadak, Kathmandu 44600, Nepal"
   },
   {
      "place_no": 12,
      "place_id": "ChIJKd5mzt4Y6zkREbZLpC0hJFY",
      "name": "Hotel Royal Kathmandu",
      "lat": 27.7335127,
      "lng": 85.3103671,
      "full_address": "Mitranagar 26, Kathmandu 44600, Nepal"
   },
   {
      "place_no": 13,
      "place_id": "ChIJw10uEqkZ6zkRdbidV_QksT4",
      "name": "Kathmandu Fun Park",
      "lat": 27.701377,
      "lng": 85.32039809999999,
      "full_address": "Pradarshani Marg, Kathmandu 44600, Nepal"
   },
   {
      "place_no": 14,
      "place_id": "ChIJR6uG6dgb6zkReO3NxkEGOc4",
      "name": "Casino Pride Nepal",
      "lat": 27.722607,
      "lng": 85.35647,
      "full_address": "Taragaon Boudha Box 19784, Taragaon 44601, Nepal, Kathmandu 44601, Nepal"
   },
   {
      "place_no": 15,
      "place_id": "ChIJU_FBrxcQ6zkRucxxeMkC8KI",
      "name": "Pilot Baba Ashram",
      "lat": 27.6401489,
      "lng": 85.42265909999999,
      "full_address": "JCRF+333, Ghyampe Danda Sadak, Anantalingeshwar, Nepal"
   },
   {
      "place_no": 16,
      "place_id": "ChIJl-NWmh8K6zkRcLz40sc6rLY",
      "name": "Namobuddha Monastery",
      "lat": 27.5712337,
      "lng": 85.5825272,
      "full_address": "HHCM+F2R, Namobuddha Rd, Simalchaur Syampati 45200, Nepal"
   },
   {
      "place_no": 17,
      "place_id": "ChIJsS-qDcUZ6zkRMLWXgKN_GW8",
      "name": "Patan Darbar Square",
      "lat": 27.6726981,
      "lng": 85.3253211,
      "full_address": "Lalitpur 44600, Nepal"
   },
   {
      "place_no": 18,
      "place_id": "ChIJcXj30VcY6zkR_UGmBRA5sMU",
      "name": "Kathmandu Durbar Square",
      "lat": 27.7042737,
      "lng": 85.307463,
      "full_address": "Kathmandu 44600, Nepal"
   },
   {
      "place_no": 19,
      "place_id": "ChIJMd8y7K8a6zkR_ZuvMec5o90",
      "name": "Bhaktapur Durbar Square",
      "lat": 27.67207,
      "lng": 85.4282951,
      "full_address": "Durbar square, Bhaktapur 44800, Nepal"
   },
   {
      "place_no": 20,
      "place_id": "ChIJTSyVq94b6zkRgRbJHZMkRT0",
      "name": "Shechen Monastery",
      "lat": 27.7237216,
      "lng": 85.3607531,
      "full_address": "P9F6+F8J, Tushal-Mahankal Rd, Kathmandu 44600, Nepal"
   },
   {
      "place_no": 21,
      "place_id": "ChIJbSMZfDQc6zkRsS9kHIModWQ",
      "name": "Shivapuri Nagarjun National Park",
      "lat": 27.8129232,
      "lng": 85.38593399999999,
      "full_address": "44600, Nepal"
   },
   {
      "place_no": 22,
      "place_id": "ChIJpftHp8UZ6zkRWyyTNiwsQgg",
      "name": "Patan Museum",
      "lat": 27.6733773,
      "lng": 85.3253361,
      "full_address": "M8FG+944, भिन्द्यो क्व - सौग: लँ, Lalitpur 44700, Nepal"
   },
   {
      "place_no": 23,
      "place_id": "ChIJyaee3BUQ6zkREYm-r7QlPMQ",
      "name": "Ghyampe Danda",
      "lat": 27.6412309,
      "lng": 85.4213408,
      "full_address": "JCRC+FGW, Ghyampe Danda Sadak, Anantalingeshwar 44800, Nepal"
   },
   {
      "place_no": 24,
      "place_id": "ChIJWZqbLwcZ6zkRCP2eRcXo5hI",
      "name": "Shree Kamaladi Ganesh Temple",
      "lat": 27.7077936,
      "lng": 85.31930729999999,
      "full_address": "P859+4P7, Kamaladi Marg, Kathmandu 44605, Nepal"
   },
   {
      "place_no": 25,
      "place_id": "ChIJu_Fi5WAY6zkRg8Hte-uvSxo",
      "name": "Casino Mahjong",
      "lat": 27.7007362,
      "lng": 85.2904477,
      "full_address": "Soaltee Crown Plaza, Tahachal Marg, Kathmandu 44600, Nepal"
   },
   {
      "place_no": 26,
      "place_id": "ChIJrUqtEFYY6zkRo-kGXHp_wa8",
      "name": "Nasal Chowk",
      "lat": 27.7042077,
      "lng": 85.30744179999999,
      "full_address": "P834+MXP, Layaku Marg, Kathmandu 44600, Nepal"
   }
]