[
   {
      "place_no": 1,
      "place_id": "ChIJw3uqaBsZ6zkRjS-DDyXqWyk",
      "name": "Hotel Shanker - Palatial Heritage Kathmandu",
      "latitude": 27.7188945,
      "longitude": 85.31946839999999,
      "address": "Lazimpat, Kathmandu 44600, Nepal"
   },
   {
      "place_no": 2,
      "place_id": "ChIJsciVgCoJ6zkRsjUON7SWYKw",
      "name": "Dhaneshwor Mahadev Temple",
      "latitude": 27.6181534,
      "longitude": 85.5225348,
      "address": "45209, Nepal"
   },
   {
      "place_no": 3,
      "place_id": "ChIJbW5nvLwX6zkRWMXF4DBLu3E",
      "name": "Bungadyo/Rato Machhendranath Temple",
      "latitude": 27.6296562,
      "longitude": 85.3021253,
      "address": "J8H2+VV6, Karyabinayak 44700, Nepal"
   },
   {
      "place_no": 4,
      "place_id": "ChIJkTIYyfob6zkRS61ZD-CX16A",
      "name": "Kopan Monastery",
      "latitude": 27.7426594,
      "longitude": 85.3649135,
      "address": "P9V7+3X7 Ward 11, Budhanilkantha 44600, Nepal"
   },
   {
      "place_no": 5,
      "place_id": "ChIJDZDTYm0Z6zkRjHsQdLKntJQ",
      "name": "Handigaun",
      "latitude": 27.716585,
      "longitude": 85.3357285,
      "address": "Handigaun Marg, Kathmandu 44600, Nepal"
   },
   {
      "place_no": 6,
      "place_id": "ChIJrciCm40Y6zkR93t5EOS9Ma4",
      "name": "Swoyambhu Mahachaitya",
      "latitude": 27.7148996,
      "longitude": 85.29039569999999,
      "address": "P77R+X52, BHAGANPAU 44600, Nepal"
   },
   {
      "place_no": 7,
      "place_id": "ChIJtz-p6AgZ6zkRPaBTRygyUjI",
      "name": "Russian House",
      "latitude": 27.7095833,
      "longitude": 85.3259132,
      "address": "Kamal Pokhari St, Kathmandu 44600, Nepal"
   },
   {
      "place_no": 8,
      "place_id": "ChIJi___P3UP6zkRtGAZ1TNjBqc",
      "name": "Kailashnath Mahadev Statue",
      "latitude": 27.6460946,
      "longitude": 85.4741963,
      "address": "Sanga, सुर्यविनायक 44800, Nepal"
   },
   {
      "place_no": 9,
      "place_id": "ChIJY937crAZ6zkR45QAr1tReKs",
      "name": "Nepal Art Council",
      "latitude": 27.6922589,
      "longitude": 85.3236319,
      "address": "M8RF+WF2, Madan Bhandari Road, Kathmandu 44600, Nepal"
   }
]